{
    "type": "FeatureCollection",
    "features": [
        {
            "type": "Feature",
            "geometry": {
                "type": "Point",
                "coordinates": [13.588045670939488, 46.80893149495315]
            },
            "properties": {
                "id": 0,
                "title": "START | ZIEL",
                "imageURL": "./start-finish-flag-big.png"
            }
        },
        {
            "type": "Feature",
            "geometry": {
                "type": "Point",
                "coordinates": [13.588059722531522, 46.8084678432627]
            },
            "properties": {
                "id": 1,
                "title": "Löffelrennen",
                "imageURL": ""
            }
        },
        {
            "type": "Feature",
            "geometry": {
                "type": "Point",
                "coordinates": [13.588280682095463, 46.807903609374605]
            },
            "properties": {
                "id": 2,
                "title": "Zungenbrecher",
                "imageURL": ""
            }
        },
        {
            "type": "Feature",
            "geometry": {
                "type": "Point",
                "coordinates": [13.589083262254457, 46.80727651943128]
            },
            "properties": {
                "id": 3,
                "title": "Wörterkette",
                "imageURL": ""
            }
        },
        {
            "type": "Feature",
            "geometry": {
                "type": "Point",
                "coordinates": [13.589828486442444, 46.80706305359768]
            },
            "properties": {
                "id": 4,
                "title": "Bürgermeister vom Bezirk Spittal",
                "imageURL": ""
            }
        },
        {
            "type": "Feature",
            "geometry": {
                "type": "Point",
                "coordinates": [13.592339203105032, 46.80673666666534]
            },
            "properties": {
                "id": 5,
                "title": "Blindes Rennen",
                "imageURL": ""
            }
        },
        {
            "type": "Feature",
            "geometry": {
                "type": "Point",
                "coordinates": [13.593382409118688, 46.807128455112576]
            },
            "properties": {
                "id": 6,
                "title": "Memory",
                "imageURL": ""
            }
        },
        {
            "type": "Feature",
            "geometry": {
                "type": "Point",
                "coordinates": [13.594141384758853, 46.808146799181316]
            },
            "properties": {
                "id": 7,
                "title": "Stummfilm",
                "imageURL": ""
            }
        },
        {
            "type": "Feature",
            "geometry": {
                "type": "Point",
                "coordinates": [13.596690487816826, 46.80695248759374]
            },
            "properties": {
                "id": 8,
                "title": "BigBag Hüpfen",
                "imageURL": ""
            }
        },
        {
            "type": "Feature",
            "geometry": {
                "type": "Point",
                "coordinates": [13.597998265656328, 46.807517235895096]
            },
            "properties": {
                "id": 9,
                "title": "Lippenlesen",
                "imageURL": ""
            }
        },
        {
            "type": "Feature",
            "geometry": {
                "type": "Point",
                "coordinates": [13.598808449977989, 46.80811556638842]
            },
            "properties": {
                "id": 10,
                "title": "Muttern stapeln",
                "imageURL": ""
            }
        },
        {
            "type": "Feature",
            "geometry": {
                "type": "Point",
                "coordinates": [13.597749468894792, 46.80988686537236]
            },
            "properties": {
                "id": 11,
                "title": "Nageln",
                "imageURL": ""
            }
        },
        {
            "type": "Feature",
            "geometry": {
                "type": "Point",
                "coordinates": [13.596847946502123, 46.81073710713666]
            },
            "properties": {
                "id": 12,
                "title": "Biersorte erraten",
                "imageURL": ""
            }
        },
        {
            "type": "Feature",
            "geometry": {
                "type": "Point",
                "coordinates": [13.59637051329567, 46.811050823337744]
            },
            "properties": {
                "id": 13,
                "title": "Ball über dem Wasser balancieren",
                "imageURL": ""
            }
        },
        {
            "type": "Feature",
            "geometry": {
                "type": "Point",
                "coordinates": [13.594337645280662, 46.810151563336596]
            },
            "properties": {
                "id": 14,
                "title": "4 Bilder 1 Wort",
                "imageURL": ""
            }
        },
        {
            "type": "Feature",
            "geometry": {
                "type": "Point",
                "coordinates": [13.59353470154409, 46.810458796383124]
            },
            "properties": {
                "id": 15,
                "title": "Fragen über Kärnten",
                "imageURL": ""
            }
        },
        {
            "type": "Feature",
            "geometry": {
                "type": "Point",
                "coordinates": [13.59238350211487, 46.81026464319797]
            },
            "properties": {
                "id": 16,
                "title": "Lieder erraten",
                "imageURL": ""
            }
        },
        {
            "type": "Feature",
            "geometry": {
                "type": "Point",
                "coordinates": [13.591628987966602, 46.81058762169986]
            },
            "properties": {
                "id": 17,
                "title": "Bierkisten stapeln",
                "imageURL": ""
            }
        },
        {
            "type": "Feature",
            "geometry": {
                "type": "Point",
                "coordinates": [13.591073982151391, 46.81046359297616]
            },
            "properties": {
                "id": 18,
                "title": "Schwedenbomben",
                "imageURL": ""
            }
        },
        {
            "type": "Feature",
            "geometry": {
                "type": "Point",
                "coordinates": [13.590728459100383, 46.81000514493455]
            },
            "properties": {
                "id": 19,
                "title": "Becherschwingen",
                "imageURL": ""
            }
        },
        {
            "type": "Feature",
            "geometry": {
                "type": "Point",
                "coordinates": [13.590339315449036, 46.81008810248804]
            },
            "properties": {
                "id": 20,
                "title": "Bierdeckel saugen",
                "imageURL": ""
            }
        },
        {
            "type": "Feature",
            "geometry": {
                "type": "Point",
                "coordinates": [13.589962930605935, 46.81030204506175]
            },
            "properties": {
                "id": 21,
                "title": "Kübelspritzen",
                "imageURL": ""
            }
        },
        {
            "type": "Feature",
            "geometry": {
                "type": "Point",
                "coordinates": [13.58815117984571, 46.8102496510393]
            },
            "properties": {
                "id": 22,
                "title": "Fragen vom Bezirk",
                "imageURL": ""
            }
        },
        {
            "type": "Feature",
            "geometry": {
                "type": "Point",
                "coordinates": [13.588323584511729, 46.809879322659405]
            },
            "properties": {
                "id": 23,
                "title": "FlipFlop Weitwerfen",
                "imageURL": ""
            }
        },
        {
            "type": "Feature",
            "geometry": {
                "type": "Point",
                "coordinates": [13.588709822611913, 46.8096920746858]
            },
            "properties": {
                "id": 24,
                "title": "Radltrugnrennen",
                "imageURL": ""
            }
        },
        {
            "type": "Feature",
            "geometry": {
                "type": "Point",
                "coordinates": [13.588326367842896, 46.809401934350625]
            },
            "properties": {
                "id": 25,
                "title": "Enten schießen",
                "imageURL": ""
            }
        }
    ]
}
